[
  {
    "name": "Karting Empuriabrava",
    "lat": 42.260235313146545,
    "lng": 3.112099766808028
  },
  {
    "name": "Karting Cross Costa Brava",
    "lat": 42.263823103265395,
    "lng": 3.1105660716885777
  },
  {
    "name": "Go Karts l'Escala",
    "lat": 42.10892206257914,
    "lng": 3.124015312651695
  },
  {
    "name": "Karting L'Estartit",
    "lat": 42.04442273105962,
    "lng": 3.1512602498125046
  },
  {
    "name": "Karting Palamós S.L.",
    "lat": 41.86958948618812,
    "lng": 3.136155735856068
  },
  {
    "name": "Karting Formula Lloret",
    "lat": 41.711111994610285,
    "lng": 2.8329921516494223
  },
  {
    "name": "Karting Blanes",
    "lat": 41.67267296278026,
    "lng": 2.76284943083873
  },
  {
    "name": "Circuito de Osona",
    "lat": 41.94978274432171,
    "lng": 2.2815329680941514
  },
  {
    "name": "Karting Cardedeu",
    "lat": 41.634225885645336,
    "lng": 2.336791482887649
  },
  {
    "name": "Karting Sallent",
    "lat": 41.784951931311426,
    "lng": 1.8883826953248393
  },
  {
    "name": "Karting El Pla",
    "lat": 42.30354673204668,
    "lng": 1.367877391727089
  },
  {
    "name": "Karting Vendrell",
    "lat": 41.198271955755395,
    "lng": 1.5287677636966646
  },
  {
    "name": "KARTING COMA-RUGA",
    "lat": 41.19258186890962,
    "lng": 1.5260801818252223
  },
  {
    "name": "Karting Altafulla",
    "lat": 41.140747077013216,
    "lng": 1.3834183088675271
  },
  {
    "name": "Circuito de Calafat",
    "lat": 40.93039760949668,
    "lng": 0.836284940462755
  },
  {
    "name": "Karting Móra",
    "lat": 41.07624068709061,
    "lng": 0.6187725690779695
  },
  {
    "name": "Karting Roses",
    "lat": 42.27829403388806,
    "lng": 3.1591571494292685
  },
  {
    "name": "Parcmotor Castellolí",
    "lat": 41.59164448192563,
    "lng": 1.6874561079859012
  },
  {
    "name": "Karting Racing Dakart Sanxenxo",
    "lat": 42.41528536674259,
    "lng": -8.866306314086446
  },
  {
    "name": "Circuito de Can Pedró",
    "lat": 41.65412463637696,
    "lng": 1.8790041126051762
  },
  {
    "name": "COMPLEJO DEPORTIVO Y DE OCIO VINAROS",
    "lat": 40.50089307454019,
    "lng": 0.4737760999999859
  },
  {
    "name": "Karting BeniKarts",
    "lat": 40.05111818192298,
    "lng": 0.053050374633555955
  },
  {
    "name": "Maralba Circuit Experience",
    "lat": 40.22584659009695,
    "lng": -0.11083256403403426
  },
  {
    "name": "Marlon Kart - Especialistas en Karting ️",
    "lat": 40.07837517153829,
    "lng": 0.1160296508062339
  },
  {
    "name": "KARTING ALMENARA PLAYA",
    "lat": 39.743610794943756,
    "lng": -0.18218943840693727
  },
  {
    "name": "Aspar Circuit",
    "lat": 39.22629041296783,
    "lng": -0.4674253688764078
  },
  {
    "name": "Circuit Ricardo Tormo",
    "lat": 39.48489343683075,
    "lng": -0.6265450635638412
  },
  {
    "name": "Karting Cabañas Raras",
    "lat": 42.62480908540567,
    "lng": -6.603155771650859
  },
  {
    "name": "toma",
    "lat": 40.54865447922224,
    "lng": 2.223217211067214
  }
]