[
  {
    "name": "Karting Roses",
    "lat": 42.27829403388806,
    "lng": 3.1591571494292685
  },
  {
    "name": "Parcmotor Castellolí",
    "lat": 41.59164448192563,
    "lng": 1.6874561079859012
  },
  {
    "name": "Karting Racing Dakart Sanxenxo",
    "lat": 42.41528536674259,
    "lng": -8.866306314086446
  },
  {
    "name": "Circuito de Can Pedró",
    "lat": 41.65412463637696,
    "lng": 1.8790041126051762
  },
  {
    "name": "COMPLEJO DEPORTIVO Y DE OCIO VINAROS",
    "lat": 40.50089307454019,
    "lng": 0.4737760999999859
  },
  {
    "name": "Karting BeniKarts",
    "lat": 40.05111818192298,
    "lng": 0.053050374633555955
  },
  {
    "name": "Maralba Circuit Experience",
    "lat": 40.22584659009695,
    "lng": -0.11083256403403426
  },
  {
    "name": "Marlon Kart - Especialistas en Karting ️",
    "lat": 40.07837517153829,
    "lng": 0.1160296508062339
  },
  {
    "name": "KARTING ALMENARA PLAYA",
    "lat": 39.743610794943756,
    "lng": -0.18218943840693727
  },
  {
    "name": "Aspar Circuit",
    "lat": 39.22629041296783,
    "lng": -0.4674253688764078
  },
  {
    "name": "Circuit Ricardo Tormo",
    "lat": 39.48489343683075,
    "lng": -0.6265450635638412
  },
  {
    "name": "Karting Cabañas Raras",
    "lat": 42.62480908540567,
    "lng": -6.603155771650859
  },
  {
    "name": "41°32'55.2\"N 2°13'23.6\"E",
    "lat": 41.54865447922224,
    "lng": 2.223217211067214
  }
]